{"city":"Canyon Country","state":"CA","address":"18752 Mandan Street","zipcode":"91351","longitude":-118.4625592,"latitude":34.4138051,"skills":["javascript","agile development","bayesian statistics","android","web design","ios","data visualization","sap","microsoft windows","agile","google analytics","project management"],"title":"web graphic designer","id":"62752186-f26e-4a9b-bbd7-9625f6cc6690"}
{"city":"Palmdale","state":"CA","address":"36507 Rodeo Street","zipcode":"93552","longitude":-118.0530133,"latitude":34.5447085,"skills":["data entry","smb marketing","sales administration","google workspace","brand promotion","claims management","order processing","cms","web design"],"title":"sales associate","id":"d1525d87-6f13-4cdf-83c2-00e15e6f4cd4"}
{"city":"Walnut","state":"CA","address":"21145 Valley Boulevard","zipcode":"91789","longitude":-117.8428101,"latitude":34.0199701,"skills":["client prospecting","customer relations","cms","google docs","data entry","google analytics"],"title":"customer service representative","id":"8873840c-44ae-4542-a847-d789dedf793e"}
{"city":"Pasadena","state":"CA","address":"365 Oneida Drive","zipcode":"91107","longitude":-118.0849019,"latitude":34.1397357,"skills":["sap","agile","ios","spark","react","embedded programming","android","big data","google analytics"],"title":"software engineer manager","id":"44f5312f-a1f3-405c-aa45-9f3a637d3521"}
{"city":"Panorama City","state":"CA","address":"8429 Lullaby Lane","zipcode":"91402","longitude":-118.444891,"latitude":34.2242794,"skills":["smb marketing","order processing","google workspace","hr operations","web design","google docs","client prospecting","adp hr","google analytics","hr management","customer retention","cms"],"title":"operations manager","id":"9d1adedf-7c18-4733-af2b-45777ac1a500"}
{"city":"Canyon Country","state":"CA","address":"19847 Terri Drive","zipcode":"91351","longitude":-118.4825741,"latitude":34.4146047,"skills":["spark","java","android","kafka","project management","python","google analytics","web design","javascript","sap","shell scripting","agile development","ios","unix","embedded programming"],"title":"andriod developer","id":"ec2611da-f594-4478-b571-def4edfafad9"}
{"city":"Torrance","state":"CA","address":"20405 South   Vermont Avenue","zipcode":"90502","longitude":-118.2910659,"latitude":33.8450952,"skills":["bioassay","orthodontics","robot-assisted surgery","telemedicine","clinical study","immunoassay","accounts payable","immunotherapy","data collection","data entry","data collection","quantification","bodywork"],"title":"registered dietician","id":"7eb1b0cc-7e1d-4fd8-abc6-e682d571f085"}
{"city":"Pomona","state":"CA","address":"107 Carrotwood Lane","zipcode":"91767","longitude":-117.7495556,"latitude":34.0983471,"skills":["embedded programming","big data","kafka","agile development","javascript","unix","data visualization","spark","agile","microsoft windows","sap","project management","web design","shell scripting"],"title":"ios developer","id":"41f9466c-2f65-448a-b70c-38c3924b95db"}
{"city":"Long Beach","state":"CA","address":"2657 East   56th Street","zipcode":"90805","longitude":-118.1616927,"latitude":33.8587785,"skills":["data entry","computer charting","data entry","clinical study"],"title":"rehabilitation coordinator","id":"cd79355f-92c5-4aed-b728-5c5fe7f24488"}
{"city":"Studio City","state":"CA","address":"3381 Wrightwood Drive","zipcode":"91604","longitude":-118.3738343,"latitude":34.133442,"skills":["ios","shell scripting","microsoft windows","javascript","spark","machine learning","google analytics","unix","java","data visualization","android","embedded programming"],"title":"java develoepr","id":"435c5c78-05d9-4171-994e-b2dd13daae47"}
{"city":"Diamond Bar","state":"CA","address":"24453 Rockbury Drive","zipcode":"91765","longitude":-117.7861744,"latitude":34.0200541,"skills":["bodywork","telemedicine","quantification","robot-assisted surgery","computer charting","bioassay","data entry","ct scan","immunoassay","immunotherapy","data collection","clinical trial","accounts payable"],"title":"verifier","id":"66b6b403-a85a-44d2-b548-717b76bfcdc6"}
{"city":"Long Beach","state":"CA","address":"4751 Pch","zipcode":"90804","longitude":-118.1377353,"latitude":33.7870225,"skills":["business administration","data entry","crm","smb marketing","cms","web design","google workspace","customer retention","hr operations","adp payroll","clerical skills","google docs"],"title":"advertising agent","id":"a7ea6327-aa68-4bdd-a3e0-8cd7d6edb358"}
{"city":"Los Angeles","state":"CA","address":"1758 Kelton Avenue","zipcode":"90024","longitude":-118.4399012,"latitude":34.0503448,"skills":["python","sap","react","android","embedded programming","microsoft windows","agile","postgresql","agile development","project management","web design"],"title":"web graphic designer","id":"f0af1b5a-77f8-4bb7-91a0-47a48a3a60a6"}
{"city":"Los Angeles","state":"CA","address":"5933 Graciosa Drive","zipcode":"90068","longitude":-118.3183751,"latitude":34.1130691,"skills":["data collection","customer retention","google docs","crm","web design","client prospecting","data visualization","google workspace","google analytics","business administration","hr management","cms","adp hr","hr operations"],"title":"brand ambassador","id":"abb6f512-8177-494c-9186-80a7a916fce9"}
{"city":"Long Beach","state":"CA","address":"6121 Rahn Avenue","zipcode":"90805","longitude":-118.2047718,"latitude":33.8662781,"skills":["unix","project management","java","shell scripting","google analytics","microsoft windows","python","android","kafka","big data","bayesian statistics","javascript"],"title":"data engineer","id":"fe5470d9-57fb-44eb-9b05-9c171d20050a"}
{"city":"Diamond Bar","state":"CA","address":"1435 Valeview Drive","zipcode":"91765","longitude":-117.797062,"latitude":33.996855,"skills":["data visualization","google analytics","python","javascript","project management","java","unix","embedded programming","big data","agile","shell scripting","microsoft windows","postgresql","sap","android"],"title":"data scientist","id":"983b13fd-2cac-4370-94a2-6a7a3f9d6069"}
{"city":"Topanga","state":"CA","address":"1640 North   Topanga Canyon Boulevard","zipcode":"90290","longitude":-118.5916893,"latitude":34.1148067,"skills":["client prospecting","data collection","order processing","adp payroll","google analytics"],"title":"advertising agent","id":"59e3f98a-4922-4a81-9435-c2bb24811b0b"}
{"city":"Hawthorne","state":"CA","address":"4640 West   118th Street","zipcode":"90250","longitude":-118.3577327,"latitude":33.9268908,"skills":["brand promotion","hr management","claims management","adp payroll","customer retention","data entry","data visualization","order processing"],"title":"office manager","id":"8b017b8a-5bb6-4426-9408-46ca100da7ab"}
{"city":"Santa Monica","state":"CA","address":"14191 Alisal Lane","zipcode":"90402","longitude":-118.5098592,"latitude":34.040043,"skills":["google analytics","cms","sales administration","data collection","hr operations","data visualization","adp payroll","customer retention","customer relations","google docs","smb marketing","claims management","hr management","clerical skills"],"title":"online marketer","id":"b79c2206-d299-4021-88d0-ee8a172e6486"}
{"city":"Palmdale","state":"CA","address":"37211 Dawson Drive","zipcode":"93550","longitude":-118.0661712,"latitude":34.5585558,"skills":["adp payroll","hr management","google docs","google analytics","customer relations","customer retention","brand promotion","claims management","web design","cms","business administration","google workspace","clerical skills"],"title":"account manager","id":"aaca6d5f-97ad-4c94-924b-380f067e47ad"}
{"city":"Inglewood","state":"CA","address":"3505 West   118th Street","zipcode":"90303","longitude":-118.3333264,"latitude":33.927357,"skills":["data collection","adp payroll","smb marketing","order processing","customer relations","sales administration"],"title":"administrative assistant","id":"56371d9d-f7f5-4021-ad8d-3adde36084dc"}
{"state":"CA","address":"1181 West   2nd Street","city":"Pomona","zipcode":"91766","longitude":-117.7649751,"latitude":34.0577283,"skills":["data visualization","sales administration","customer relations","crm","smb marketing","hr operations","clerical skills","data collection","claims management","client prospecting","cms"],"title":"media specialist","id":"5efe117c-f271-4eee-adc0-e5fcabbedd57"}
{"city":"Culver City","state":"CA","address":"11342 Hannum Avenue","zipcode":"90230","longitude":-118.394003,"latitude":33.992139,"skills":["business administration","google workspace","order processing","customer relations","web design","brand promotion","adp hr","client prospecting","cms","data collection","hr operations","google docs"],"title":"operations manager","id":"f56a14b4-90fd-46e3-aff0-ac1e927405db"}
{"city":"Topanga","state":"CA","zipcode":"90290","address":"110 Pawnee","longitude":-118.5977156,"latitude":34.1392993,"skills":["postgresql","agile","machine learning","javascript","spark"],"title":"data engineer","id":"8c34d9e5-da5b-4b90-8101-5ca8522e3fe6"}
{"city":"Glendale","state":"CA","address":"3335 Triangle Place","zipcode":"91208","longitude":-118.2293801,"latitude":34.1998071,"skills":["bodywork","immunoassay","quantification","telemedicine","clinical trial","data collection","data entry","robot-assisted surgery"],"title":"travel nurse","id":"012411e8-54ad-4355-8754-6bbcc568c6b9"}
{"city":"Northridge","state":"CA","address":"18444 Napa Street","zipcode":"91325","longitude":-118.5354158,"latitude":34.2263382,"skills":["quantification","data entry","accounts payable","bioassay","computer charting","orthodontics","immunoassay","data entry","data collection","healthcare administration","clinical trial","robot-assisted surgery"],"title":"verifier","id":"86725da7-15f9-498e-891b-1d1018a7e058"}
{"city":"Encino","state":"CA","zipcode":"91436","address":"4525 Libbit Avenue","longitude":-118.4914818,"latitude":34.1540504,"skills":["claims management","adp hr","hr management","adp payroll","crm","customer relations","customer retention","client prospecting","sales administration"],"title":"administrative assistant","id":"cf75e1a7-cb2b-4626-96b3-319fe859a6c2"}
{"city":"Pacific Palisades","state":"CA","zipcode":"90272","address":"945 Corsica Drive","longitude":-118.5084709,"latitude":34.0453599,"skills":["healthcare administration","immunoassay","robot-assisted surgery","orthodontics","bodywork","accounts payable","data entry","ct scan","clinical trial","bioassay","clinical study","data collection"],"title":"registered nurse","id":"9e288142-0a9b-45d4-84f9-3eb4b74619c8"}
{"city":"Montebello","state":"CA","address":"1509 West   Beverly Terrace","zipcode":"90640","longitude":-118.1152695,"latitude":34.017925,"skills":["web design","clerical skills","smb marketing","google analytics","google workspace","claims management","data collection"],"title":"order checker","id":"0ef4c1b1-dbaf-4a73-b7af-65c3e8450f05"}
{"city":"Burbank","state":"CA","zipcode":"91505","address":"3511 Warner Boulevard","longitude":-118.3372558,"latitude":34.1514285,"skills":["ct scan","bodywork","quantification","data entry","laboratory analysis","immunotherapy","data collection","clinical trial","robot-assisted surgery"],"title":"verifier","id":"83bbf85d-dcda-4add-9351-8183e5ff43ff"}
{"city":"Los Angeles","state":"CA","address":"4525 East   5th Street","zipcode":"90022","longitude":-118.1686043,"latitude":34.0287338,"skills":["crm","adp payroll","order processing","customer retention","web design","sales administration","customer relations","google workspace","google docs","smb marketing","business administration","client prospecting"],"title":"marketing professional","id":"72c2210d-c714-4857-99e9-03827c41946c"}
{"city":"Los Angeles","state":"CA","address":"3352 Floral Drive","zipcode":"90063","longitude":-118.1907228,"latitude":34.0423288,"skills":["project management","android","web design","google analytics","bayesian statistics","python"],"title":"designer","id":"44ae3525-3841-46eb-80d9-c52db545dfbc"}
{"city":"Norwalk","state":"CA","address":"11402 Crossdale Avenue","zipcode":"90650","longitude":-118.0971848,"latitude":33.9291016,"skills":["healthcare administration","robot-assisted surgery","accounts payable","bioassay","clinical trial","telemedicine"],"title":"public health administrator","id":"1d93e61b-0ee4-4552-b4a4-bd8052b0f4ee"}
{"city":"Carson","state":"CA","address":"21913 South   Dablon Avenue","zipcode":"90745","longitude":-118.2495618,"latitude":33.8292533,"skills":["spark","kafka","agile","javascript"],"title":"web graphic designer","id":"eccb9c2f-029c-45eb-8408-865a80940b6f"}
{"city":"Lawndale","state":"CA","zipcode":"90260","address":"16219 Prairie Avenue","longitude":-118.3441389,"latitude":33.8829286,"skills":["ct scan","data entry","clinical trial","laboratory analysis","computer charting","robot-assisted surgery","immunotherapy","data collection","bodywork","telemedicine","data entry","immunoassay"],"title":"remote area nurse","id":"8aa03ae4-001b-4c70-b3a8-41be0a11971d"}
{"city":"Santa Clarita","state":"CA","address":"25835 San Fernando Road","zipcode":"91350","longitude":-118.5407708,"latitude":34.4101734,"skills":["immunotherapy","telemedicine","quantification","robot-assisted surgery","clinical trial","clinical study","accounts payable","data entry","data entry"],"title":"travel nurse","id":"649719b5-7cb3-496e-9556-4d246546badd"}
{"city":"Los Angeles","state":"CA","address":"513 North   Heliotrope Drive","zipcode":"90004","longitude":-118.2954508,"latitude":34.0794971,"skills":["microsoft windows","postgresql","agile","spark","react","bayesian statistics","javascript","sap","python","unix","web design","embedded programming"],"title":"java develoepr","id":"628710df-e625-4a35-95cc-e4b6f196fa3c"}
{"city":"Sherman Oaks","state":"CA","address":"5018 Mammoth Avenue","zipcode":"91423","longitude":-118.4322951,"latitude":34.161746,"skills":["customer retention","order processing","client prospecting","web design","adp hr","hr management","smb marketing","hr operations","adp payroll","data visualization","google workspace","business administration","clerical skills","crm","data collection"],"title":"online marketer","id":"a7ec8339-e023-4491-a005-11c6e185bfa1"}
{"city":"Canyon Country","state":"CA","address":"17957 Lost Canyon Road","zipcode":"91387","longitude":-118.452335,"latitude":34.4025641,"skills":["data entry","customer retention","google analytics","customer relations","google docs","smb marketing","order processing","hr management"],"title":"account coordinator","id":"4418862b-5f9e-41c0-905f-80413373ff0e"}
{"city":"El Monte","state":"CA","address":"11414 Cherrylee Drive","zipcode":"91732","longitude":-118.0174465,"latitude":34.095372,"skills":["immunoassay","telemedicine","ct scan","bioassay","data entry","data collection","clinical trial","clinical study","robot-assisted surgery","orthodontics"],"title":"registered dietician","id":"8a284558-946a-4723-9e61-63d65fe756c5"}
{"city":"Sylmar","state":"CA","address":"12913 San Fernando Road","zipcode":"91342","longitude":-118.4667852,"latitude":34.3047213,"skills":["big data","shell scripting","unix","google analytics","spark","agile","embedded programming","android","machine learning","javascript"],"title":"web graphic designer","id":"bf2002e5-c761-457a-b96b-d528ed1e910f"}
{"city":"Lakewood","state":"CA","address":"5609 Autry Avenue","zipcode":"90712","longitude":-118.127489,"latitude":33.8578954,"skills":["telemedicine","data entry","ct scan","data collection","clinical study"],"title":"sleep lab technician","id":"4ebcac50-824a-4feb-b776-5c2e6044ff78"}
{"city":"Burbank","state":"CA","address":"400 Dartmouth Road","zipcode":"91504","longitude":-118.3233341,"latitude":34.1959588,"skills":["agile","javascript","bayesian statistics","web design"],"title":"software engineer","id":"6c1f6915-2a81-41d6-8139-be153298f08e"}
{"city":"Compton","state":"CA","address":"14803 South   Stanford Avenue","zipcode":"90220","longitude":-118.2613458,"latitude":33.8980555,"skills":["orthodontics","healthcare administration","ct scan","bioassay","clinical study","robot-assisted surgery"],"title":"scribe","id":"44d10039-f997-40bb-b56e-18d87cf370f7"}
{"city":"Whittier","state":"CA","address":"15311 Whittier Boulevard","zipcode":"90603","longitude":-118.0014434,"latitude":33.9478703,"skills":["client prospecting","google analytics","adp hr","data collection","customer relations","google workspace","web design"],"title":"account manager","id":"bfb155f6-96e0-418f-9172-93d7d5727fc8"}
{"city":"Long Beach","state":"CA","address":"645 North   Pacific Avenue","zipcode":"90802","longitude":-118.1941277,"latitude":33.7749554,"skills":["laboratory analysis","data entry","telemedicine","bioassay"],"title":"youth counselor","id":"d92e8a3a-1687-4722-b03b-4ef63181f61d"}
{"city":"Redondo Beach","state":"CA","address":"611 South   Prospect Avenue","zipcode":"90277","longitude":-118.3765977,"latitude":33.8327169,"skills":["quantification","data entry","robot-assisted surgery","computer charting","accounts payable","clinical study","orthodontics","ct scan","data collection","data collection","laboratory analysis","immunoassay","data entry"],"title":"rehab director","id":"0b614b6e-5846-42e3-938a-5bcc3883d4cb"}
{"city":"Torrance","state":"CA","address":"3604 171st Street","zipcode":"90504","longitude":-118.3353242,"latitude":33.874997,"skills":["data visualization","machine learning","react","spark","microsoft windows","android","web design","bayesian statistics","postgresql","project management"],"title":"java develoepr","id":"13ddb516-053f-479c-aa8b-279c2c08c3aa"}
{"state":"CA","address":"2474 Joel Drive","city":"Rowland Heights","zipcode":"91748","longitude":-117.8646053,"latitude":33.9730507,"skills":["immunotherapy","ct scan","telemedicine","data entry","quantification","clinical trial","healthcare administration","robot-assisted surgery","computer charting","accounts payable","data collection","immunoassay","laboratory analysis","clinical study","bodywork"],"title":"scribe","id":"f6f6261e-4761-40c7-880a-cb9bac6865c4"}
{"city":"Burbank","state":"CA","address":"1812 North   Naomi Street","zipcode":"91505","longitude":-118.3401014,"latitude":34.1888341,"skills":["data visualization","android","agile","agile development","spark","postgresql","project management","microsoft windows","react","kafka","web design","python","sap","bayesian statistics"],"title":"designer","id":"e7ddaf3c-3688-48c6-b1b7-f6656352aab3"}
{"city":"Beverly Hills","state":"CA","address":"228 South   Doheny Drive","zipcode":"90211","longitude":-118.3893946,"latitude":34.0638681,"skills":["data visualization","client prospecting","data entry","crm","web design","adp payroll","business administration","customer relations","brand promotion","customer retention","hr operations","cms","sales administration","clerical skills"],"title":"order checker","id":"74bd7e76-2839-4b97-89ef-c8bf8a66df1e"}
{"city":"Long Beach","state":"CA","address":"3933 Conquista Avenue","zipcode":"90808","longitude":-118.1086844,"latitude":33.8297773,"skills":["google analytics","microsoft windows","javascript"],"title":"ios developer","id":"f3948b36-958c-4de4-92ae-fe6107a7a269"}
{"city":"Long Beach","state":"CA","address":"160 East   57th Street","zipcode":"90805","longitude":-118.1927015,"latitude":33.8589686,"skills":["web design","data entry","business administration","adp hr","hr operations","sales administration","clerical skills","data visualization","order processing","customer relations","crm","google analytics"],"title":"advertising agent","id":"93107a8c-4a15-467f-a556-4b86f7c5fe26"}
{"city":"Arcadia","state":"CA","address":"260 West  Las Flores Avenue","zipcode":"91007","longitude":-118.0410819,"latitude":34.1158589,"skills":["data entry","ct scan","healthcare administration","quantification","data collection","orthodontics","immunotherapy","clinical study","robot-assisted surgery","accounts payable","bodywork","immunoassay","telemedicine","data collection","bioassay"],"title":"procedural nurse","id":"39031d20-4bfb-4774-8c3e-5a4aaa64dc74"}
{"city":"Los Angeles","state":"CA","address":"840 East   20th Street","zipcode":"90011","longitude":-118.2566034,"latitude":34.0259662,"skills":["project management","web design","sap","machine learning","data visualization","embedded programming","unix","big data","android","python","shell scripting","microsoft windows","google analytics"],"title":"andriod developer","id":"8731ec03-db21-41bb-9a93-74cb2c809180"}
{"city":"Azusa","state":"CA","address":"281 Alder Court","zipcode":"91702","longitude":-117.9093778,"latitude":34.1501688,"skills":["google workspace","claims management","google docs","cms","data collection","google analytics","client prospecting","order processing","customer retention","hr operations","adp hr","smb marketing","data entry","data visualization","business administration"],"title":"marketing professional","id":"7906c25f-98ea-424f-b923-cfcd3c367736"}
{"city":"Los Angeles","state":"CA","address":"304 Boyd Street","zipcode":"90013","longitude":-118.2440231,"latitude":34.0469746,"skills":["data visualization","customer retention","hr operations","smb marketing"],"title":"brand ambassador","id":"7a981732-9623-4d6c-aa82-4f4e1699713e"}
{"city":"Acton","state":"CA","address":"32102 Cedarcroft Road","zipcode":"93510","longitude":-118.1656535,"latitude":34.4670266,"skills":["brand promotion","adp hr","claims management","cms","data entry","customer retention","adp payroll","hr management","client prospecting","customer relations","web design"],"title":"hr associate","id":"80dffa13-74d3-4500-b0fc-fe477a7dd547"}
{"city":"Lancaster","state":"CA","address":"45356 Spahn Lane","zipcode":"93535","longitude":-118.063816,"latitude":34.7078099,"skills":["accounts payable","data collection","clinical study","clinical trial","robot-assisted surgery","immunotherapy","healthcare administration","orthodontics"],"title":"registered dietician","id":"5811f188-2a51-4c43-9ef4-bb9dde404b33"}
{"city":"Los Angeles","state":"CA","address":"110 East   135th Street","zipcode":"90061","longitude":-118.2735707,"latitude":33.9089882,"skills":["postgresql","python","android","unix"],"title":"software engineer manager","id":"e6714b86-b6e0-4a68-ab87-21ebd68a095b"}
{"city":"Los Angeles","state":"CA","address":"930 West Avenue  37","zipcode":"90065","longitude":-118.2189984,"latitude":34.0973728,"skills":["clerical skills","adp hr","business administration","data collection","google docs","cms","smb marketing"],"title":"advertising agent","id":"d9b76063-a739-488f-8217-e6a2d336295a"}
{"city":"Marina Del Rey","state":"CA","address":"3407 Ocean Front Walk","zipcode":"90292","longitude":-118.4652678,"latitude":33.9772986,"skills":["cms","customer relations","smb marketing"],"title":"office manager","id":"0f87f6a2-7209-44a3-a4fa-da5ed111e39d"}
{"city":"South Pasadena","state":"CA","address":"411 Alta Vista Avenue","zipcode":"91030","longitude":-118.167528,"latitude":34.1082249,"skills":["kafka","web design","google analytics","unix","microsoft windows","postgresql","data visualization","shell scripting"],"title":"web graphic designer","id":"09176a71-313b-4fee-8681-f9817fa1aa78"}
{"city":"Santa Monica","state":"CA","address":"609 Ashland Avenue","zipcode":"90405","longitude":-118.4765831,"latitude":34.0029736,"skills":["adp payroll","smb marketing","claims management","customer relations","hr operations","google analytics","cms","brand promotion","hr management","google docs","order processing"],"title":"client strategist","id":"b2d0f2d5-3b03-49be-8346-497d0a48604b"}
{"city":"Sherman Oaks","state":"CA","address":"13480 Cheltenham Drive","zipcode":"91423","longitude":-118.4261958,"latitude":34.1409444,"skills":["unix","google analytics","java","agile"],"title":"software engineer","id":"12570497-10c9-4411-9ddf-3a7b8d728054"}
{"city":"Calabasas","state":"CA","address":"5727 Las Virgenes Road","zipcode":"91302","longitude":-118.7030645,"latitude":34.1607895,"skills":["postgresql","google analytics","machine learning","kafka","spark","microsoft windows","project management"],"title":"product manager","id":"26836d41-3228-4a4d-9b19-5434d3e98da6"}
{"city":"Los Angeles","state":"CA","address":"1152 Glendale Boulevard","zipcode":"90026","longitude":-118.2605354,"latitude":34.0774649,"skills":["google docs","crm","google analytics","data entry","hr operations","business administration"],"title":"account manager","id":"a929614a-3cf9-4ebe-9e9b-3e622be57933"}
{"city":"Castaic","state":"CA","address":"28702 Meadow Grass Drive","zipcode":"91384","longitude":-118.6372373,"latitude":34.4868438,"skills":["healthcare administration","computer charting","data collection","orthodontics","data entry","telemedicine","laboratory analysis","data entry","bodywork","immunotherapy","immunoassay","clinical trial","accounts payable"],"title":"psychiatric registered nurse","id":"673a57a3-0553-42e5-a8ac-42a8003b500d"}
{"city":"Van Nuys","state":"CA","address":"17410 Sherman Way","zipcode":"91406","longitude":-118.5122589,"latitude":34.2009284,"skills":["robot-assisted surgery","bioassay","healthcare administration","computer charting"],"title":"public health administrator","id":"e35351fc-7e0e-422b-be08-aac4278812d2"}
{"city":"Glendale","state":"CA","address":"1560 Grandview Avenue","zipcode":"91201","longitude":-118.2779683,"latitude":34.1745885,"skills":["adp payroll","order processing","google workspace","claims management","adp hr","client prospecting","customer relations"],"title":"order checker","id":"0e42031c-9647-4435-a664-9473c7535677"}
{"city":"Long Beach","state":"CA","address":"341 Havana Avenue","zipcode":"90814","longitude":-118.1261425,"latitude":33.7691145,"skills":["agile","ios","agile development","project management","machine learning","big data","spark"],"title":"java develoepr","id":"f47ad9ca-175e-4aef-b7b9-b67741ebab8a"}
{"city":"La Canada Flintridge","state":"CA","address":"4457 Alta Canyada Road","zipcode":"91011","longitude":-118.2117887,"latitude":34.2088088,"skills":["data entry","ct scan","accounts payable","clinical trial","orthodontics","bodywork","telemedicine","healthcare administration","computer charting","bioassay","data collection","data collection"],"title":"sleep lab technician","id":"8e4e54c9-41bf-40cc-b0b8-9ca09983d1c5"}
{"city":"Glendale","state":"CA","address":"1017 East   Maple Street","zipcode":"91205","longitude":-118.2424393,"latitude":34.1392797,"skills":["quantification","clinical trial","accounts payable","clinical study","orthodontics","bodywork","healthcare administration","bioassay"],"title":"rehab director","id":"0db63e3b-f4f7-465b-b204-56224ca56dc3"}
{"city":"Sylmar","state":"CA","address":"13418 Herron Street","zipcode":"91342","longitude":-118.4250086,"latitude":34.3162416,"skills":["ios","react","sap","android","agile development","unix","javascript","microsoft windows","spark","web design","google analytics"],"title":"data scientist","id":"8fab3fc2-13f1-4c76-8f68-79bcc3133844"}
{"city":"West Hills","state":"CA","address":"6649 Franrivers Avenue","zipcode":"91307","longitude":-118.6559924,"latitude":34.1919931,"skills":["brand promotion","google docs","hr management","clerical skills","sales administration","web design","customer relations","cms","client prospecting","google analytics","customer retention","adp payroll","data entry","claims management"],"title":"hr associate","id":"450b9086-4cf7-4b84-b81a-ffee26625a2b"}
{"city":"Long Beach","state":"CA","address":"1500 East   Ocean Boulevard","zipcode":"90802","longitude":-118.1738493,"latitude":33.7648269,"skills":["accounts payable","laboratory analysis","immunotherapy","data entry"],"title":"travel nurse","id":"701d2950-e784-4dd2-aae1-6b4fd82b2f12"}
{"city":"Azusa","state":"CA","address":"849 East   Promenade","zipcode":"91702","longitude":-117.8923729,"latitude":34.1382785,"skills":["data visualization","adp hr","hr management","data entry"],"title":"client strategist","id":"066b62b0-f257-48c8-8b3a-b40c39d781b0"}
{"city":"Redondo Beach","state":"CA","address":"615 Susana Avenue","zipcode":"90277","longitude":-118.3745412,"latitude":33.8323249,"skills":["clinical trial","laboratory analysis","computer charting","data entry","clinical study","data collection","bodywork","immunoassay","immunotherapy","quantification","ct scan","accounts payable"],"title":"public health administrator","id":"c35f06ca-039e-4192-b633-98f93b06da53"}
{"city":"Carson","state":"CA","address":"23255 South   Archibald Avenue","zipcode":"90745","longitude":-118.2828982,"latitude":33.8143439,"skills":["ct scan","telemedicine","quantification","data collection","healthcare administration","laboratory analysis","robot-assisted surgery","orthodontics","immunotherapy","data collection","computer charting","bodywork","immunoassay","clinical study","bioassay"],"title":"registered nurse","id":"7a66888e-372e-416a-8489-20f6c42d7cab"}
{"city":"Granada Hills","state":"CA","address":"17120 Bircher Street","zipcode":"91344","longitude":-118.5054739,"latitude":34.2818551,"skills":["healthcare administration","orthodontics","laboratory analysis","bodywork","ct scan","data entry","robot-assisted surgery","computer charting","immunoassay","immunotherapy","accounts payable","clinical study","clinical trial"],"title":"youth counselor","id":"aa90d118-3577-47a9-a9d0-b064f955ca2b"}
{"city":"Inglewood","state":"CA","zipcode":"90305","address":"3500 West   Manchester Boulevard","longitude":-118.3307174,"latitude":33.9582725,"skills":["telemedicine","clinical study","data collection","bodywork","immunotherapy","healthcare administration","orthodontics","robot-assisted surgery","bioassay","ct scan","data collection","clinical trial","immunoassay"],"title":"psychiatric assistant","id":"41662421-6813-4c31-912a-a3e42db60a88"}
{"city":"Newhall","state":"CA","address":"23452 Lyons Avenue","zipcode":"91321","longitude":-118.543899,"latitude":34.3786085,"skills":["customer retention","data collection","claims management","google docs","google analytics","adp hr","data entry","hr operations","clerical skills","adp payroll"],"title":"advertising agent","id":"bb528a25-6a73-45df-83f7-8782e8933c26"}
{"city":"Whittier","state":"CA","address":"11534 Rivera Road","zipcode":"90606","longitude":-118.0715385,"latitude":33.9631737,"skills":["accounts payable","ct scan","robot-assisted surgery","bodywork","telemedicine","healthcare administration","immunoassay","bioassay","data collection","orthodontics"],"title":"surg technician","id":"2ca08bb7-bb3b-400f-b9a3-b72cffcf1a0c"}
{"city":"Glendale","state":"CA","address":"221 West   Dryden Street","zipcode":"91202","longitude":-118.2578496,"latitude":34.1617654,"skills":["accounts payable","data entry","bioassay","immunotherapy","orthodontics","robot-assisted surgery","laboratory analysis","data entry","clinical study","healthcare administration","data collection","telemedicine","ct scan","immunoassay","quantification"],"title":"rehabilitation coordinator","id":"990f1e57-2080-424b-89c7-214b7658c258"}
{"city":"Porter Ranch","state":"CA","address":"11655 Sheffield Way","zipcode":"91326","longitude":-118.5314135,"latitude":34.2831813,"skills":["bioassay","robot-assisted surgery","telemedicine","accounts payable","data entry","data entry","laboratory analysis","healthcare administration","quantification","immunoassay","ct scan","data collection","data collection","bodywork"],"title":"registered nurse","id":"1b08bdd4-bc27-4733-b659-13d21c91a959"}
{"city":"Rancho Palos Verdes","state":"CA","address":"28503 Hazelridge Drive","zipcode":"90275","longitude":-118.3948906,"latitude":33.775044,"skills":["web design","cms","hr operations","data collection","adp payroll","google analytics"],"title":"marketing professional","id":"461fe2ba-6637-4738-9f88-2baa1b3b2cf0"}
{"city":"Walnut","state":"CA","address":"20115 Padrino Avenue","zipcode":"91789","longitude":-117.8629039,"latitude":33.9938712,"skills":["smb marketing","crm","data entry","data collection","client prospecting","data visualization","customer relations","google workspace","adp payroll","brand promotion","clerical skills","hr management"],"title":"account coordinator","id":"beb35599-1ef8-4c23-bbe1-2cfccefe1332"}
{"city":"North Hills","state":"CA","address":"15119 Nordhoff Street","zipcode":"91343","longitude":-118.4616433,"latitude":34.2356478,"skills":["kafka","embedded programming","react","web design","google analytics","shell scripting","javascript"],"title":"data scientist","id":"7ded17f9-96b5-4d24-a6af-ea231837b024"}
{"city":"Lakewood","state":"CA","address":"2016 Del Bay Street","zipcode":"90712","longitude":-118.1665449,"latitude":33.8520293,"skills":["immunoassay","computer charting","orthodontics","data entry","robot-assisted surgery","data collection"],"title":"youth counselor","id":"19f199f2-e72a-4f1b-977a-e2599fa9b59d"}
{"city":"Los Angeles","state":"CA","address":"1742 West   82nd Street","zipcode":"90047","longitude":-118.3082551,"latitude":33.9644652,"skills":["project management","data visualization","javascript","python"],"title":"software engineer manager","id":"c52a979a-db8b-483e-9694-dc17c361c553"}
{"city":"La Crescenta","state":"CA","address":"2716 Stevens Street","zipcode":"91214","longitude":-118.2381409,"latitude":34.2282964,"skills":["orthodontics","robot-assisted surgery","immunoassay","immunotherapy","laboratory analysis","computer charting","accounts payable","data collection","quantification","bioassay","ct scan","telemedicine","data entry","bodywork"],"title":"sleep lab technician","id":"f40e4085-f0cf-4b27-a139-b3cf5ab0114d"}
{"city":"Los Angeles","state":"CA","address":"12321 West   Washington Boulevard","zipcode":"90066","longitude":-118.4274134,"latitude":33.9973565,"skills":["postgresql","spark","unix","java","sap","project management"],"title":"software engineer manager","id":"a3e80af3-5bac-416e-9d92-397df1f652fb"}
{"state":"CA","address":"1108 Lachman Lane","city":"Pacific Palisades","zipcode":"90272","longitude":-118.5470115,"latitude":34.0554478,"skills":["immunoassay","ct scan","data collection","quantification","bioassay","data entry","data entry"],"title":"scrub technician","id":"a5f1bff3-4ca4-4ba4-b217-35d938fd32fa"}
{"city":"Los Angeles","state":"CA","address":"8006 South   Hoover Street","zipcode":"90044","longitude":-118.2869356,"latitude":33.9664296,"skills":["data collection","bodywork","quantification","accounts payable","orthodontics","immunotherapy","telemedicine","laboratory analysis","data entry","immunoassay","data entry","computer charting","bioassay"],"title":"verifier","id":"bbbf45ca-2026-45dd-97b6-ead15c9794a8"}
{"city":"Culver City","state":"CA","address":"4191 Lafayette Place","zipcode":"90232","longitude":-118.3912534,"latitude":34.0191973,"skills":["claims management","hr operations","data collection","clerical skills","smb marketing","brand promotion","data visualization","order processing","business administration"],"title":"operations manager","id":"a3047d31-68c0-4d26-a495-301f15b04c9a"}
{"city":"Los Angeles","state":"CA","address":"3609 West   63rd Street","zipcode":"90043","longitude":-118.3356997,"latitude":33.9827944,"skills":["bayesian statistics","microsoft windows","sap","web design","data visualization"],"title":"andriod developer","id":"33ee89d3-769a-4bce-8529-f85572a53301"}
{"city":"Los Angeles","state":"CA","address":"1360 U West   96th Street","zipcode":"90044","longitude":-118.3000276,"latitude":33.948603,"skills":["microsoft windows","android","postgresql","python","kafka"],"title":"designer","id":"90601194-a96b-439f-bcb6-e93092172b17"}
{"city":"La Crescenta","state":"CA","address":"2628 Timberlake Drive","zipcode":"91214","longitude":-118.236688,"latitude":34.2402687,"skills":["crm","smb marketing","adp hr","customer relations","google workspace","google docs","hr management","data collection"],"title":"account coordinator","id":"e540a2d6-75fb-42f2-905a-d0bc5d1d7d0a"}
{"city":"Los Angeles","state":"CA","address":"4955 Renovo Street","zipcode":"90032","longitude":-118.1774934,"latitude":34.0910139,"skills":["ct scan","quantification","robot-assisted surgery","computer charting","immunoassay","immunotherapy","accounts payable","data entry","data entry","healthcare administration"],"title":"psychiatric assistant","id":"be52edcd-9139-4ca4-899f-0084c59a974b"}
{"city":"Palmdale","state":"CA","address":"4761 East Avenue  R4","zipcode":"93552","longitude":-118.0430024,"latitude":34.5693113,"skills":["telemedicine","data entry","orthodontics","data entry","immunotherapy","clinical study","data collection","bodywork","robot-assisted surgery","accounts payable"],"title":"psychiatric registered nurse","id":"06b2d784-c4dd-4ba0-9aa5-b8b887b00f92"}
{"city":"palmdale","state":"ca","address":"5013 rainer avenue","zipcode":"93552","longitude":-118.040284,"latitude":34.5780489,"skills":["immunotherapy","data entry","laboratory analysis","bodywork","quantification","bioassay","accounts payable","computer charting","robot-assisted surgery","data entry","immunoassay"],"title":"sleep lab technician","id":"58e6226c-aaa7-4f6e-a3dd-f13c72a35347"}
{"city":"hacienda heights","state":"ca","address":"16239 folger street","zipcode":"91745","longitude":-117.9519431,"latitude":34.0071879,"skills":["web design","claims management","google docs","data collection","customer retention","adp hr","google analytics","brand promotion","crm","order processing","client prospecting","business administration","clerical skills"],"title":"file clerk","id":"8d271a9f-f8c6-4b27-bfe5-6d557583ca7a"}
{"city":"alhambra","state":"ca","address":"817 north monterey street","zipcode":"91801","longitude":-118.1308221,"latitude":34.1035782,"skills":["ct scan","orthodontics","clinical trial","immunoassay","computer charting","telemedicine","data collection","data entry","quantification","immunotherapy","bioassay","laboratory analysis","robot-assisted surgery","data collection","bodywork"],"title":"registered dietician","id":"40c3f25e-d83a-4229-9bda-bad96100f053"}
{"city":"los angeles","state":"ca","address":"159 south detroit street","zipcode":"90036","longitude":-118.3452601,"latitude":34.0719397,"skills":["data entry","customer retention","hr management","cms","google workspace"],"title":"account executive","id":"0bfb7a40-d437-40bb-816e-e6a2c04ddf58"}
{"city":"west covina","state":"ca","address":"2723 hillside drive","zipcode":"91791","longitude":-117.8980081,"latitude":34.0441764,"skills":["data collection","order processing","business administration","google workspace","hr operations","crm","web design","data visualization","hr management","adp hr","sales administration"],"title":"account executive","id":"059e0756-61e1-4bd6-8ca3-b94ab48b7594"}
{"city":"sylmar","state":"ca","address":"12229 hillsdale avenue","zipcode":"91342","longitude":-118.4488769,"latitude":34.2927509,"skills":["google docs","business administration","adp payroll","customer retention","sales administration","claims management","data entry","crm"],"title":"account executive","id":"9bea93a2-62dd-445f-8fc4-eaae39158f54"}
{"city":"huntington park","state":"ca","zipcode":"90255","address":"2824 hope street","longitude":-118.2195514,"latitude":33.9692524,"skills":["brand promotion","order processing","data entry","customer relations","google workspace","smb marketing","adp hr","adp payroll","google analytics"],"title":"operations manager","id":"c1f703ad-50a2-49ba-885e-628ecadf3366"}
{"city":"montebello","state":"ca","address":"1917 west olympic boulevard","zipcode":"90640","longitude":-118.1232717,"latitude":34.0100047,"skills":["unix","python","ios","react","bayesian statistics","big data","android"],"title":"software engineer","id":"6acce9b6-6142-4294-b36c-cf0639cb4b1a"}
{"city":"hermosa beach","state":"ca","address":"1514 manhattan avenue","zipcode":"90254","longitude":-118.3993365,"latitude":33.8648558,"skills":["hr operations","web design","google workspace","adp payroll"],"title":"file clerk","id":"43154f04-3932-4724-884f-3375fe27c50d"}
{"city":"rosemead","state":"ca","address":"2439 stevens avenue","zipcode":"91770","longitude":-118.1070028,"latitude":34.0565887,"skills":["ios","android","kafka","unix","sap"],"title":"java develoepr","id":"b38c0759-6a18-4625-88a7-37123a122e85"}
{"city":"los angeles","state":"ca","address":"926 maltman avenue","zipcode":"90026","longitude":-118.2803031,"latitude":34.0852673,"skills":["immunotherapy","data entry","clinical trial","accounts payable","ct scan","laboratory analysis","immunoassay","healthcare administration","robot-assisted surgery","orthodontics","bodywork","data collection","clinical study","data collection"],"title":"procedural nurse","id":"fbfdbbd1-be16-4bb8-b515-0f8be0799f20"}
{"city":"glendale","state":"ca","address":"147 west acacia avenue","zipcode":"91204","longitude":-118.256575,"latitude":34.1349314,"skills":["clinical study","immunoassay","orthodontics","data collection","robot-assisted surgery","telemedicine","data entry","data entry","clinical trial","accounts payable","laboratory analysis"],"title":"verifier","id":"27caddea-f7dd-4fd7-9bbe-1a2d60ed314f"}
{"state":"ca","address":"1837 baseline road","city":"la verne","zipcode":"91750","longitude":-117.7703759,"latitude":34.1219698,"skills":["project management","javascript","kafka","microsoft windows","shell scripting","postgresql","embedded programming"],"title":"ios developer","id":"14a4dc48-8cab-498e-8190-10fbb63b9f96"}
{"city":"los angeles","state":"ca","address":"9410 compton avenue","zipcode":"90002","longitude":-118.2459343,"latitude":33.9513783,"skills":["clerical skills","data entry","order processing","crm","data visualization","google analytics","customer retention","business administration","smb marketing","web design","claims management","client prospecting","adp hr","sales administration","google docs"],"title":"client strategist","id":"2f8e2968-65be-4848-943d-a0da684ae685"}
{"city":"chatsworth","state":"ca","address":"22245 acorn street","zipcode":"91311","longitude":-118.6117961,"latitude":34.2461059,"skills":["immunoassay","quantification","immunotherapy"],"title":"psychiatric registered nurse","id":"3cdeb006-ef4a-48c6-b672-300962ea15d6"}
{"state":"ca","zipcode":"91601","address":"11316 burbank boulevard","city":"north hollywood","longitude":-118.3768802,"latitude":34.1719933,"skills":["claims management","sales administration","customer relations","web design","data visualization","business administration","hr management","clerical skills","hr operations","crm"],"title":"office manager","id":"81f26be4-438d-482a-9984-9eccd8fa3a78"}
{"city":"los angeles","state":"ca","address":"315 south san pedro street","zipcode":"90013","longitude":-118.2428561,"latitude":34.0468742,"skills":["bodywork","telemedicine","ct scan","bioassay","immunotherapy","clinical study","accounts payable","data entry","robot-assisted surgery","orthodontics","healthcare administration","data entry","computer charting","data collection"],"title":"registered nurse","id":"1a7199a5-a010-4fb6-807f-67df9eaecbfc"}
{"city":"van nuys","state":"ca","address":"14102 victory boulevard","zipcode":"91401","longitude":-118.4401835,"latitude":34.1864854,"skills":["kafka","google analytics","react","big data"],"title":"data engineer","id":"be0626bb-37e7-467b-98ae-bb591209ed86"}
{"city":"pasadena","state":"ca","zipcode":"91104","address":"1292 sinaloa avenue","longitude":-118.1150989,"latitude":34.1682403,"skills":["laboratory analysis","data collection","computer charting","data collection","data entry"],"title":"registered nurse","id":"d978484b-a35c-494c-bc15-84a69c5f41cf"}
{"city":"irwindale","state":"ca","address":"4605 nora avenue","zipcode":"91706","longitude":-117.9378732,"latitude":34.0962688,"skills":["bioassay","immunoassay","laboratory analysis","accounts payable","data collection","bodywork","robot-assisted surgery","healthcare administration","ct scan","telemedicine"],"title":"psychiatric assistant","id":"435cdb64-0d7d-4932-a495-daa506c0687a"}
{"city":"san pedro","state":"ca","address":"675 west 6th street","zipcode":"90731","longitude":-118.2917021,"latitude":33.7386592,"skills":["java","bayesian statistics","shell scripting","android"],"title":"andriod developer","id":"eb7938dd-1fa3-474f-8546-50d799d6e5c3"}
{"city":"long beach","state":"ca","address":"4510 east highway 1","zipcode":"90804","longitude":-118.140859,"latitude":33.7874324,"skills":["sap","microsoft windows","spark"],"title":"designer","id":"64dc538c-7101-4a10-b39a-a3fae7bf1740"}
{"city":"los angeles","state":"ca","address":"7512 miramonte boulevard","zipcode":"90001","longitude":-118.245344,"latitude":33.9720829,"skills":["google docs","business administration","smb marketing","google workspace","customer relations","cms","sales administration","crm","web design","adp payroll","hr management","claims management","brand promotion"],"title":"administrative assistant","id":"edde199c-3897-473d-87da-cceb9d5e6aeb"}
{"city":"torrance","state":"ca","address":"5405 halison street","zipcode":"90503","longitude":-118.3700529,"latitude":33.8515397,"skills":["embedded programming","bayesian statistics","agile development","postgresql","python","react","big data"],"title":"web graphic designer","id":"11130239-4e73-405f-b7e9-c86f1eeaac59"}
{"city":"pasadena","state":"ca","address":"95 west claremont street","zipcode":"91103","longitude":-118.1525257,"latitude":34.1671834,"skills":["laboratory analysis","orthodontics","data entry","data collection","data entry","computer charting","immunotherapy","bioassay","accounts payable","quantification","healthcare administration","ct scan","clinical study"],"title":"scrub technician","id":"779a318d-b4e9-46d1-ad1c-20a4b6dd578c"}
{"city":"beverly hills","state":"ca","address":"425 south doheny drive","zipcode":"90211","longitude":-118.3901055,"latitude":34.0583434,"skills":["agile","web design","sap","microsoft windows"],"title":"web developer","id":"64877172-1094-4b60-a1a6-edda1dd038d7"}
{"city":"los angeles","state":"ca","address":"970 dexter street","zipcode":"90042","longitude":-118.2082356,"latitude":34.1161714,"skills":["immunoassay","quantification","clinical study","bioassay","data collection","accounts payable","data entry","clinical trial","immunotherapy","robot-assisted surgery"],"title":"sleep lab technician","id":"9f14eeca-a150-4a2b-8bc5-d49f2ad62db6"}
{"city":"pomona","state":"ca","address":"858 north garey avenue","zipcode":"91767","longitude":-117.7507242,"latitude":34.0661637,"skills":["adp payroll","clerical skills","customer relations"],"title":"sales associate","id":"d04100f5-ba06-4470-8453-6fb0169f607c"}
{"city":"panorama city","state":"ca","address":"8144 sepulveda boulevard","zipcode":"91402","longitude":-118.4660305,"latitude":34.219234,"skills":["agile development","embedded programming","postgresql","unix","kafka","shell scripting","web design","agile","java","javascript","big data"],"title":"web developer","id":"4630ca7b-f03e-465a-b073-91e0b904da0f"}
{"city":"hermosa beach","state":"ca","address":"817 cypress avenue","zipcode":"90254","longitude":-118.3960362,"latitude":33.8601222,"skills":["laboratory analysis","bioassay","quantification","robot-assisted surgery","bodywork","immunotherapy","computer charting"],"title":"verifier","id":"e2dadd87-0b7b-4c64-97f5-085bc14e863a"}
{"city":"north hollywood","state":"ca","address":"6937 beck avenue","zipcode":"91605","longitude":-118.3835427,"latitude":34.1971417,"skills":["data visualization","cms","data collection","clerical skills","google analytics","claims management","adp payroll","adp hr","business administration"],"title":"online marketer","id":"2eb1702c-175c-4381-adbe-dc61d6550238"}
{"city":"glendale","state":"ca","address":"1607 trenton avenue","zipcode":"91206","longitude":-118.2289783,"latitude":34.1546938,"skills":["embedded programming","postgresql","java","big data","python","android","ios","agile","unix","project management","bayesian statistics","javascript"],"title":"java develoepr","id":"4728e27a-00bb-4da2-9ec0-d5eed1a9042f"}
{"city":"encino","state":"ca","address":"18042 ventura boulevard","zipcode":"91316","longitude":-118.5258656,"latitude":34.164805,"skills":["microsoft windows","bayesian statistics","python","big data","project management","android","react","ios","postgresql"],"title":"designer","id":"2351d472-61bb-41e5-989a-2de7a64f0aff"}
{"city":"long beach","state":"ca","address":"6924 butler avenue","zipcode":"90805","longitude":-118.1966533,"latitude":33.8802243,"skills":["adp hr","google docs","hr operations","smb marketing","data visualization","google analytics","data collection","hr management"],"title":"operations manager","id":"48ff2792-ee4a-47d8-ada1-c91cdc29d994"}
{"city":"valencia","state":"ca","address":"27061 clarence court","zipcode":"91355","longitude":-118.5612053,"latitude":34.4299286,"skills":["google analytics","big data","java","data visualization","agile","javascript","bayesian statistics"],"title":"web developer","id":"7e060fd0-9b88-4c7d-bf58-cae9b3ef880b"}
{"city":"compton","state":"ca","address":"1213 south pearl avenue","zipcode":"90221","longitude":-118.2135147,"latitude":33.8854022,"skills":["brand promotion","order processing","hr operations","data collection","sales administration","google analytics","hr management"],"title":"online marketer","id":"22153a8a-d26f-48d6-a36a-ee3b6952d69e"}
{"city":"palos verdes peninsula","state":"ca","address":"6 peacock lane","zipcode":"90274","longitude":-118.3283234,"latitude":33.7791286,"skills":["accounts payable","bodywork","bioassay","quantification","robot-assisted surgery","orthodontics","computer charting","immunoassay","data entry","clinical trial","laboratory analysis","healthcare administration","telemedicine","data entry","data collection"],"title":"rehabilitation coordinator","id":"40908d9e-0288-483e-8d81-967970eeb498"}
{"city":"littlerock","state":"ca","address":"10314 east avenue s2","zipcode":"93543","longitude":-117.9444063,"latitude":34.5557036,"skills":["data visualization","adp hr","data entry","smb marketing","adp payroll","crm","cms","customer retention","business administration"],"title":"online marketer","id":"1b1df390-ca99-4d82-97d4-d74dfe0634f9"}
{"city":"los angeles","state":"ca","address":"945 north gage avenue","zipcode":"90063","longitude":-118.1849704,"latitude":34.0473318,"skills":["microsoft windows","python","sap","big data","agile development","data visualization","agile","kafka","java","shell scripting","javascript"],"title":"web developer","id":"b1108f06-6f80-473c-be16-0ef079142523"}
{"city":"glendale","state":"ca","address":"504 griswold street","zipcode":"91205","longitude":-118.2345367,"latitude":34.1405039,"skills":["client prospecting","brand promotion","web design","order processing","data collection","sales administration","crm","data entry","business administration","hr operations"],"title":"order checker","id":"0c5fc985-af8f-4599-ab88-23c3f7273be0"}
{"city":"culver city","state":"ca","address":"10754 barman avenue","zipcode":"90230","longitude":-118.4015744,"latitude":34.0107349,"skills":["clerical skills","cms","client prospecting","google analytics","data visualization","google docs","web design","smb marketing","claims management","customer retention","data entry","sales administration"],"title":"administrative assistant","id":"a18eb26c-4094-4470-a999-e4069289b978"}
{"city":"panorama city","state":"ca","address":"8831 van nuys boulevard","zipcode":"91402","longitude":-118.4504506,"latitude":34.2308786,"skills":["project management","postgresql","microsoft windows","spark","machine learning","web design"],"title":"designer","id":"f2d6b8aa-ec0c-41d9-826e-3047a8aa7222"}
{"city":"south gate","state":"ca","address":"3061 liberty boulevard","zipcode":"90280","longitude":-118.2154368,"latitude":33.9613969,"skills":["immunotherapy","bioassay","data entry","computer charting","ct scan","quantification","accounts payable","data entry","clinical study","clinical trial","robot-assisted surgery","orthodontics","laboratory analysis"],"title":"procedural nurse","id":"c5739701-88f7-43e5-b915-88fdb1c88b39"}
{"city":"arcadia","state":"ca","address":"171 west naomi avenue","zipcode":"91007","longitude":-118.0377331,"latitude":34.1245041,"skills":["accounts payable","ct scan","data entry","clinical study","quantification","telemedicine","immunotherapy","data entry","healthcare administration","computer charting","bioassay","bodywork","data collection"],"title":"remote area nurse","id":"20037748-d355-42e5-8f29-966b919c1cf6"}
{"city":"los angeles","state":"ca","address":"1856 north avenue 52","zipcode":"90042","longitude":-118.201847,"latitude":34.1266248,"skills":["smb marketing","hr operations","sales administration","hr management","customer relations","claims management","cms","adp hr"],"title":"account manager","id":"ac9e4b2d-3cdd-4e2e-add1-1c64cbd6fc64"}
{"city":"los angeles","state":"ca","address":"1243 east 48th street","zipcode":"90011","longitude":-118.2531676,"latitude":33.999944,"skills":["data entry","crm","data collection"],"title":"hr associate","id":"3e41fe28-42d8-4cf4-954c-484254abc59c"}
{"city":"santa clarita","state":"ca","address":"22536 los tigres drive","zipcode":"91350","longitude":-118.5301406,"latitude":34.4300492,"skills":["data collection","quantification","telemedicine"],"title":"procedural nurse","id":"d3129c5b-42ae-4cf7-b47a-cb6dec8ca7ac"}
{"city":"la puente","state":"ca","address":"344 la seda road","zipcode":"91744","longitude":-117.897261,"latitude":34.0122064,"skills":["quantification","data entry","data entry","computer charting","accounts payable","ct scan","clinical study","immunoassay","telemedicine","robot-assisted surgery","data collection","clinical trial","orthodontics"],"title":"youth counselor","id":"8cee995b-bb53-4971-ad26-1e132f09f262"}
{"city":"la mirada","state":"ca","address":"14411 adelfa drive","zipcode":"90638","longitude":-118.0040237,"latitude":33.9013786,"skills":["web design","agile","android","python","spark","unix","ios","react"],"title":"software engineer manager","id":"a3dea10f-48e6-4062-bf52-a244202d7ebb"}
{"city":"los angeles","state":"ca","address":"9004 compton avenue","zipcode":"90002","longitude":-118.247225,"latitude":33.9549851,"skills":["quantification","robot-assisted surgery","data collection"],"title":"psychiatric registered nurse","id":"bc3f33d0-ffa1-41e1-95f9-245c5487fe54"}
{"city":"south gate","state":"ca","address":"11022 vulcan street","zipcode":"90280","longitude":-118.1667198,"latitude":33.9274393,"skills":["healthcare administration","immunotherapy","orthodontics","robot-assisted surgery","quantification","immunoassay","bodywork","telemedicine","ct scan","laboratory analysis","clinical study","bioassay"],"title":"registered dietician","id":"b46a2f28-abe1-462e-b63c-69beb267eeaa"}
{"city":"huntington park","state":"ca","address":"5930 pacific boulevard","zipcode":"90255","longitude":-118.2247311,"latitude":33.9878838,"skills":["agile","data visualization","sap","ios","kafka","android","agile development","microsoft windows","bayesian statistics","postgresql","embedded programming"],"title":"web developer","id":"36ba24b6-1073-46a6-88b8-716836b495c4"}
{"city":"pico rivera","state":"ca","address":"8905 rex road","zipcode":"90660","longitude":-118.1019027,"latitude":33.9784613,"skills":["customer relations","data entry","adp hr","hr management","brand promotion","data collection","order processing","google docs","google analytics","sales administration","client prospecting","business administration","hr operations","web design"],"title":"file clerk","id":"7561e7b2-b1a7-4457-9e39-bea718eda228"}
{"city":"baldwin park","state":"ca","address":"4648 laurens avenue","zipcode":"91706","longitude":-117.9612936,"latitude":34.0968793,"skills":["google workspace","client prospecting","data visualization"],"title":"account manager","id":"0f5c920b-082a-4fc3-9840-82d4fbe06a0b"}
{"city":"carson","state":"ca","address":"23041 south atmore avenue","zipcode":"90745","longitude":-118.2822533,"latitude":33.8161625,"skills":["healthcare administration","clinical study","data entry","immunotherapy","clinical trial"],"title":"scrub technician","id":"7e3abddb-7b02-4143-89df-71d1b024f97f"}
{"city":"los angeles","state":"ca","address":"5266 southridge avenue","zipcode":"90043","longitude":-118.346464,"latitude":33.9941273,"skills":["web design","adp hr","data collection","hr operations","client prospecting","crm","clerical skills"],"title":"client strategist","id":"2de9517d-6a9c-4c3b-827a-bb987f15ea7b"}
{"city":"west covina","state":"ca","address":"1215 south gretta avenue","zipcode":"91790","longitude":-117.92211,"latitude":34.0532264,"skills":["orthodontics","laboratory analysis","robot-assisted surgery","telemedicine","quantification","ct scan","data collection","clinical study","data entry"],"title":"rehabilitation coordinator","id":"ffcb165d-6c45-4243-9f3e-08b9e36a2aa5"}
{"city":"monrovia","state":"ca","address":"432 south shamrock avenue","zipcode":"91016","longitude":-117.9904671,"latitude":34.1472141,"skills":["customer retention","crm","client prospecting","clerical skills","google analytics"],"title":"hr associate","id":"670a8d80-a0f8-4fea-b835-045065b1f9bc"}
{"city":"los angeles","state":"ca","zipcode":"90010","address":"2976 wilshire boulevard","longitude":-118.2863244,"latitude":34.0616639,"skills":["adp payroll","adp hr","order processing"],"title":"advertising agent","id":"827d5aa0-2892-4ffb-bf7b-6f6ae34802be"}
{"city":"bell gardens","state":"ca","address":"6824 marlow avenue","zipcode":"90201","longitude":-118.1667596,"latitude":33.9710153,"skills":["bioassay","data entry","computer charting","immunoassay","immunotherapy","data collection","ct scan","telemedicine","data collection"],"title":"rehabilitation coordinator","id":"9a811071-9e82-4962-bb32-65fe4869f5cf"}
{"city":"san gabriel","state":"ca","zipcode":"91776","address":"204 west live oak street","longitude":-118.1020263,"latitude":34.100449,"skills":["data visualization","big data","shell scripting","unix","python","agile development","project management","google analytics","react","bayesian statistics","web design","postgresql"],"title":"data engineer","id":"67080e58-34de-448f-8f9e-c477b705e399"}
{"city":"los angeles","state":"ca","address":"11957 washington boulevard","zipcode":"90066","longitude":-118.4215198,"latitude":33.9979892,"skills":["claims management","sales administration","hr operations","customer retention","client prospecting","smb marketing"],"title":"advertising agent","id":"49568cbd-4ef2-4a39-8304-d754f5a67f96"}
{"city":"los angeles","state":"ca","address":"5469 wilshire boulevard","zipcode":"90036","longitude":-118.3479105,"latitude":34.0624672,"skills":["javascript","big data","web design","data visualization","google analytics","bayesian statistics","postgresql"],"title":"java develoepr","id":"5cd4d8ea-0dd1-4487-b4d0-84c9ce4c98de"}
{"city":"san gabriel","state":"ca","address":"4924 rosemead boulevard","zipcode":"91776","longitude":-118.0727191,"latitude":34.0912401,"skills":["google docs","cms","google analytics","crm","business administration","adp hr","hr management","smb marketing","web design","sales administration","data visualization","order processing","google workspace"],"title":"office manager","id":"9b8784fd-35d9-4525-98bd-9ce9116b8a09"}
{"city":"studio city","state":"ca","address":"4100 tujunga avenue","zipcode":"91604","longitude":-118.3787896,"latitude":34.1424958,"skills":["data entry","robot-assisted surgery","immunoassay","ct scan","data collection","data collection","quantification","accounts payable","immunotherapy","bioassay","telemedicine","clinical study","data entry","computer charting"],"title":"psychiatric assistant","id":"53b59e7a-9015-45fa-a249-4034d8bd91f2"}
{"city":"los angeles","state":"ca","address":"331 east 107th street","zipcode":"90003","longitude":-118.2684482,"latitude":33.9393952,"skills":["google analytics","python","javascript","java"],"title":"web developer","id":"e5296448-4f39-498c-9c01-abba00290ab4"}
{"city":"pacoima","state":"ca","address":"12828 daventry street","zipcode":"91331","longitude":-118.4125784,"latitude":34.28223,"skills":["data entry","clerical skills","data collection","brand promotion","client prospecting","business administration","crm","web design","sales administration","hr management","cms","google analytics"],"title":"media specialist","id":"6fe47976-3024-4c9a-b25d-722ff786d2b7"}
{"city":"los angeles","state":"ca","address":"3168 fairmount street","zipcode":"90063","longitude":-118.1931503,"latitude":34.0471774,"skills":["agile development","java","ios","web design","bayesian statistics","python"],"title":"designer","id":"4e662d75-5342-40f3-be5e-9e2bfb70ba68"}
{"city":"newhall","state":"ca","address":"24742 apple street","zipcode":"91321","longitude":-118.5419035,"latitude":34.3762595,"skills":["agile","spark","unix","data visualization","react","java","android","kafka","big data","bayesian statistics","agile development","web design","machine learning","sap","ios"],"title":"web developer","id":"956dd03c-02f1-41cd-8906-e3b8a8d2eaba"}
{"city":"los angeles","state":"ca","address":"1366 east 41st street","zipcode":"90011","longitude":-118.249821,"latitude":34.0088279,"skills":["postgresql","agile","google analytics","android","javascript","web design","project management","spark","shell scripting","agile development"],"title":"designer","id":"6f86a656-c33b-4239-bf7f-0a72671e54ef"}
{"city":"granada hills","state":"ca","address":"12662 daryl avenue","zipcode":"91344","longitude":-118.5134648,"latitude":34.3007753,"skills":["python","javascript","agile development","unix","google analytics"],"title":"data engineer","id":"746fbc01-cd82-48b2-8001-7e2e0c2d4f7d"}
{"city":"el monte","state":"ca","zipcode":"91732","address":"3567 whistler avenue","longitude":-118.0175314,"latitude":34.0707724,"skills":["customer retention","crm","google analytics","google workspace","google docs","web design","customer relations","business administration","data entry","cms","hr operations","claims management","adp hr","sales administration","client prospecting"],"title":"customer service representative","id":"84dc6a2f-e121-45de-8182-53594b269510"}
{"city":"pomona","state":"ca","address":"954 karesh avenue","zipcode":"91767","longitude":-117.7221698,"latitude":34.068416,"skills":["javascript","machine learning","project management","postgresql","shell scripting","unix","google analytics","big data","android","microsoft windows","sap","bayesian statistics","kafka","python","java"],"title":"web graphic designer","id":"ae456e4b-4813-41e6-912a-729c7d5d473c"}
{"city":"glendale","state":"ca","address":"-1 geneva street","zipcode":"91206","longitude":-118.2467066,"latitude":34.1520413,"skills":["javascript","postgresql","sap","react","data visualization","bayesian statistics","ios","kafka","java","big data","shell scripting","agile development","agile"],"title":"product manager","id":"4f4576ca-c475-424a-ad51-b5870f752657"}
{"city":"glendale","state":"ca","address":"460 salem street","zipcode":"91203","longitude":-118.2640132,"latitude":34.1486563,"skills":["python","data visualization","postgresql","kafka","ios","machine learning","web design","agile development","unix","shell scripting","android","embedded programming"],"title":"ios developer","id":"9b84090f-6af7-4173-863f-0f9f768b3c21"}
{"city":"signal hill","state":"ca","address":"2317 promontory drive","zipcode":"90755","longitude":-118.1637196,"latitude":33.7997148,"skills":["data collection","quantification","immunotherapy","immunoassay","robot-assisted surgery","healthcare administration","data collection","data entry","orthodontics","bioassay","computer charting","accounts payable","bodywork","ct scan","clinical study"],"title":"scribe","id":"0eedae99-e2d0-480f-8b0e-fbdce241feff"}
{"city":"pasadena","state":"ca","address":"1549 casa grande street","zipcode":"91104","longitude":-118.1184736,"latitude":34.1636615,"skills":["accounts payable","robot-assisted surgery","clinical trial","clinical study","data collection","computer charting","data entry","healthcare administration","ct scan","immunoassay","immunotherapy","laboratory analysis","quantification","bioassay"],"title":"verifier","id":"8499ded8-5ffa-49bb-b7ba-cb53646a7bc5"}
{"city":"castaic","state":"ca","address":"30522 1/2 terraza court","zipcode":"91384","longitude":-118.6486855,"latitude":34.4739065,"skills":["data collection","clinical study","robot-assisted surgery","quantification","laboratory analysis","data entry","clinical trial","data collection","bioassay"],"title":"travel nurse","id":"7cc52b2b-db32-4149-8367-4c810bc29d14"}
{"city":"san dimas","state":"ca","address":"578 conestoga road","zipcode":"91773","longitude":-117.8178834,"latitude":34.1207644,"skills":["data entry","data collection","robot-assisted surgery","computer charting","bodywork","bioassay","data collection","ct scan","telemedicine"],"title":"travel nurse","id":"8b140523-9bd6-44de-ab4c-c782147e81a9"}
{"city":"los angeles","state":"ca","address":"2061 mc pherson place","zipcode":"90032","longitude":-118.1817092,"latitude":34.0670853,"skills":["data collection","ct scan","quantification","data entry","bioassay","immunoassay","computer charting","bodywork","orthodontics"],"title":"rehabilitation coordinator","id":"7ee07e19-7c74-46f4-9769-f56f80a04c36"}
{"city":"compton","state":"ca","address":"513 south chester avenue","zipcode":"90221","longitude":-118.2148135,"latitude":33.8917803,"skills":["data collection","google workspace","customer retention","google docs","sales administration"],"title":"operations manager","id":"a680379f-2243-4d09-ae39-c934a7ea8b88"}
{"city":"valencia","state":"ca","address":"24501 town center drive","zipcode":"91355","longitude":-118.5632102,"latitude":34.4183243,"skills":["microsoft windows","ios","shell scripting","postgresql","java","web design","embedded programming","android","bayesian statistics","data visualization","sap","python","unix","machine learning"],"title":"designer","id":"8cc4a81f-9f52-4bd0-a6b1-6d9194a32e74"}
{"state":"ca","address":"2482 pesquera drive","city":"los angeles","zipcode":"90049","longitude":-118.5088493,"latitude":34.080669,"skills":["react","spark","microsoft windows","embedded programming","bayesian statistics","agile","project management","web design","sap","kafka","google analytics","ios","data visualization","postgresql","machine learning"],"title":"designer","id":"7ca726b8-2cd9-4c5e-85ec-14c02299902d"}
{"city":"redondo beach","state":"ca","address":"105 paseo de granada","zipcode":"90277","longitude":-118.3794593,"latitude":33.8065422,"skills":["google analytics","microsoft windows","big data","agile","python","bayesian statistics","android","postgresql","unix"],"title":"software engineer","id":"7193a112-b7e5-4ed6-a6c3-924a5bec2590"}
{"city":"los angeles","state":"ca","address":"1786 1/4 east vernon avenue","zipcode":"90058","longitude":-118.2414626,"latitude":34.0038032,"skills":["crm","data collection","adp payroll","google workspace","data visualization","adp hr","hr operations","google docs","cms","client prospecting","sales administration","brand promotion","web design","data entry","order processing"],"title":"client strategist","id":"d52ace06-43f6-4f1e-ab47-908763911277"}
{"city":"valencia","state":"ca","address":"26001 coronado court","zipcode":"91355","longitude":-118.5514633,"latitude":34.4065764,"skills":["sales administration","customer relations","smb marketing","data collection"],"title":"sales associate","id":"f9c9677d-f589-4689-ae67-2e2c46d8a92c"}
{"city":"redondo beach","state":"ca","address":"625 esplanade","zipcode":"90277","longitude":-118.3899154,"latitude":33.831937,"skills":["computer charting","immunoassay","data collection","bodywork","quantification","data collection","clinical trial"],"title":"travel nurse","id":"8ffa4bba-1ffc-4d0e-bfc3-b45625e57b8b"}
{"city":"south pasadena","state":"ca","address":"174 monterey road","zipcode":"91030","longitude":-118.1736417,"latitude":34.1107305,"skills":["google docs","claims management","client prospecting","cms","google analytics","smb marketing","adp payroll","sales administration"],"title":"file clerk","id":"88ab9efc-5bee-45db-811e-e3c85e2ae31c"}
{"city":"pasadena","state":"ca","address":"734 north wilson avenue","zipcode":"91104","longitude":-118.1277892,"latitude":34.1586819,"skills":["laboratory analysis","clinical study","data collection","ct scan","robot-assisted surgery","clinical trial","telemedicine","bodywork","immunotherapy"],"title":"remote area nurse","id":"3fef04a6-9816-4ce3-b229-c4e605919e0e"}
{"city":"los angeles","state":"ca","address":"5928 1/2 york boulevard","zipcode":"90042","longitude":-118.1899476,"latitude":34.1180338,"skills":["computer charting","clinical study","telemedicine","immunoassay","orthodontics","accounts payable","data collection","ct scan","data collection","bioassay","healthcare administration","robot-assisted surgery","immunotherapy","data entry"],"title":"youth counselor","id":"d4abec1a-fc92-4143-85a2-c21551c94de4"}
{"city":"long beach","state":"ca","address":"1744 grand avenue","zipcode":"90804","longitude":-118.147328,"latitude":33.7891571,"skills":["python","google analytics","java","embedded programming","ios","microsoft windows","react","machine learning","shell scripting","sap","unix","agile development","javascript","spark"],"title":"ios developer","id":"490ac3c5-b4ea-4831-882d-694f87a16c10"}
{"city":"los angeles","state":"ca","address":"1424 north crescent heights boulevard","zipcode":"90046","longitude":-118.3654842,"latitude":34.0969029,"skills":["project management","react","bayesian statistics","postgresql","microsoft windows","sap","unix"],"title":"software engineer manager","id":"59f59249-a7bb-4458-9c51-8d5c54a16462"}
{"city":"pasadena","state":"ca","address":"1540 pegfair estates drive","zipcode":"91103","longitude":-118.1843049,"latitude":34.1717394,"skills":["web design","brand promotion","business administration","claims management","sales administration","google workspace","crm"],"title":"account executive","id":"7c414a71-a314-4e8b-a4ef-73e2c5453bc3"}
{"city":"covina","state":"ca","address":"510 north retford knoll","zipcode":"91724","longitude":-117.856685,"latitude":34.09055,"skills":["machine learning","ios","react","postgresql","agile development","python"],"title":"web developer","id":"746c49b1-3e34-4f40-ae8d-29bd3fd50e31"}
{"city":"lakewood","state":"ca","address":"4527 maybank avenue","zipcode":"90712","longitude":-118.1612076,"latitude":33.8407588,"skills":["agile development","sap","python","big data","data visualization","android","javascript","shell scripting","web design"],"title":"web developer","id":"cd5c2f1d-cdae-45a6-9ee3-58dd2fb00e3a"}
{"city":"glendale","state":"ca","address":"341 geneva street","zipcode":"91206","longitude":-118.2467044,"latitude":34.1515232,"skills":["sap","google analytics","microsoft windows","agile","postgresql","data visualization","java","shell scripting"],"title":"designer","id":"3ca02411-8658-4548-93a7-42c6614b5fc0"}
{"city":"lawndale","state":"ca","address":"16404 sr-107","zipcode":"90260","longitude":-118.352041,"latitude":33.8816497,"skills":["adp hr","clerical skills","customer relations","google docs","brand promotion","data entry","client prospecting","crm","google analytics","cms"],"title":"advertising agent","id":"85b35658-23ba-4d1e-b8e5-610f13df12e6"}
{"city":"diamond bar","state":"ca","zipcode":"91765","address":"436 willapa lane","longitude":-117.8063346,"latitude":34.0295551,"skills":["data collection","adp hr","hr operations","google docs","google workspace","crm","customer relations","cms","adp payroll","order processing","data visualization"],"title":"advertising agent","id":"584f9912-0111-4c43-babb-bdd5979c5969"}
{"city":"culver city","state":"ca","address":"9467 jefferson boulevard","zipcode":"90232","longitude":-118.3872074,"latitude":34.0184343,"skills":["web design","google analytics","postgresql","embedded programming","javascript","android"],"title":"data scientist","id":"9cd65fb4-5ed4-4123-9d96-f0ee8a03b779"}
{"city":"los angeles","state":"ca","address":"1918 fox hills drive","zipcode":"90025","longitude":-118.4200183,"latitude":34.0568278,"skills":["claims management","crm","web design","smb marketing","sales administration","customer retention","google docs","google analytics","client prospecting","order processing","data visualization","data entry","hr management"],"title":"hr associate","id":"11aa908c-ce17-436a-9478-971855536c76"}
